OBJECTID,LONGITUDE,LATITUDE,COUNTRY,NAME,NAME2,N_TURBINES,POWER_MW,STATUS,YEAR,COAST_DIST_M,NOTES,
1,2.84,51.69,Belgium,Belwind Alstom Haliade Demonstration,Belwind Alstom Haliade Demonstration,1,6,Production,2013,43900.77701, ,
2,12.54,55.52,Denmark,Aflandshage,Aflandshage,,250,Planned,,4621.307008, ,
3,12.46,55.6,Denmark,Avedore Holme,Avedøre Holme,3,10.8,Production,2011,292.4562547, ,
4,11.36,57.45,Denmark,Bochers Banke,Bochers Banke,,1102.5,Planned,,17145.55062, ,
5,14.74,54.98,Denmark,Bornholm,Bornholm,,100,Planned,,8284.902004, ,
6,15.96,55.14,Denmark,Bornholm Bassin Ost,Bornholm Bassin Ost,,1500,Planned,,41357.16176, ,
7,15.96,54.88,Denmark,Bornholm Bassin Syd,Bornholm Bassin Syd,,1500,Planned,,52608.85867, ,5500
8,11.2,54.7,Denmark,Femern,Femern,,400,Planned,,1762.153578, ,0
9,11.45,54.46,Denmark,Femern Bugt,Femern Bugt,,300,Planned,,10406.50282, ,
10,10.65,57.68,Denmark,Frederikshavn Nord,Frederikshavn Nord,,500,Planned,,5195.75953, ,
11,7.54,57.27,Denmark,Freya,Freya,,1500,Planned,,60389.95911, ,
12,12.39,56.17,Denmark,Gilleleje,Gilleleje,,210,Planned,,6142.347249, ,
13,11.11,56.47,Denmark,Gjerrild Bugt,Gjerrild Bugt,,400,Planned,,9734.381239, ,
14,10.99,56.57,Denmark,Grena,Grena,,315,Planned,,9862.080525, ,
15,12.09,54.66,Denmark,Guldborgsund,Guldborgsund,,500,Planned,,8306.535564, ,
16,11.99,54.53,Denmark,Guldborgsund Syd,Guldborgsund Syd,,500,Planned,,3520.970994, ,
17,8.35,57.18,Denmark,Hanstholm Syd,Hanstholm Syd,,500,Planned,,15722.17106, ,
18,9.88,57.61,Denmark,Hirtshals Havn Offshore,Hirtshals Havn Offshore,,350,Planned,,4444.277108, ,
19,9.76,57.55,Denmark,Hirtshals Havn Syd,Hirtshals Havn Syd,,500,Planned,,7209.973165, ,
20,11.01,55.59,Denmark,Jammerland Bugt,Jammerland Bugt,,240,Planned,,6518.046145, ,
21,7.7,57.29,Denmark,Jyske Banke Nord,Jyske Banke Nord,,1050,Planned,,54148.66914, ,
22,11.56,56.07,Denmark,Klintebjerg,Klintebjerg,,585,Planned,,12164.91089, ,
23,12.94,55.03,Denmark,Kriegers Flak,Kriegers Flak,72,605,Production,2021,25751.59197, ,
24,11.4,57.32,Denmark,Laeso,Laeso,,540,Planned,,12084.02427, ,
25,9.82,55.15,Denmark,Lillebaelt-Syd (Lillegrund),Lillebælt-Syd (Lillegrund),,160,Planned,,8396.573136, ,
26,11.65,54.42,Denmark,Lolland,Lolland,,253,Planned,,20502.86457, ,
27,11.2,54.66,Denmark,Lolland Syd,Lolland Syd,,260,Planned,,5702.088481, ,
28,12.19,56.21,Denmark,Lysegrund,Lysegrund,,550,Planned,,10304.95553, ,
29,11.25,56.47,Denmark,Norddjurs,Norddjurs,,650,Planned,,18177.95313, ,
30,12.82,55.68,Denmark,Nordre Flint,Nordre Flint,,160,Planned,,2975.38033, ,
31,5.91,56.96,Denmark,Odin (DK),Odin (DK),,2250,Planned,,130406.8978, ,
32,8.29,55.18,Denmark,Romo,Romo,,500,Planned,,11281.93967, ,
33,10.58,55.72,Denmark,Samso,Samso,9,20.7,Production,2003,5333.283238, ,
34,10.58,55.72,Denmark,Samso,Samso,1,2.3,Dismantled,2018,5333.283238,2018,
35,10.58,55.72,Denmark,Samso,Samso,1,2.3,Production,2018,5333.283238, ,
36,11.63,56.63,Denmark,Sonderbjerg,Sonderbjerg,,285,Planned,,7410.848109, ,
37,12.53,55.27,Denmark,Stevns Nord,Stevns Nord,,350,Planned,,5186.762357, ,
38,11.25,56.25,Denmark,Stokkebro,Stokkebro,,210,Planned,,23265.80119, ,
39,6.1,57.07,Denmark,Thybo,Thybo,,4000,Planned,,115086.0186, ,
40,7.86,57.28,Denmark,Thybo II,Thybo II,,1760,Planned,,45544.13602, ,
41,10.36,55.97,Denmark,Tuno Knob,Tuno Knob,10,5,Production,1995,2972.107587, ,
42,8.02,56.62,Denmark,Vesterhav Nord,Vesterhav Nord,21,176,Construction,,7823.719896, ,
43,8.02,56.62,Denmark,Vesterhav Syd,Vesterhav Syd,,168,Construction,,7823.719896, ,
44,8.65,57.17,Denmark,Vigso Bay,Vigso Bay,,450,Planned,,5189.609834, ,
45,24.19,57.98,Estonia,Area 1 - Eesti Energia,Area 1 - Eesti Energia,,1005,Planned,,12277.07761, ,
46,24.01,57.97,Estonia,Area 2 - Eesti Energia,Area 2 - Eesti Energia,,1005,Planned,,13651.72717, ,
47,23.82,58.04,Estonia,ELWIND,ELWIND,,1000,Planned,,10812.7116, ,
48,23.98,57.97,Estonia,Liivi Iaht,Liivi Iaht,,960,Planned,,13628.2809, ,
49,22.5,59.15,Estonia,Loode-Eesti Meretuulepark,Loode-Eesti Meretuulepark,200,1100,Planned,,8027.171153, ,
50,22.49,58.21,Estonia,Nasva Offshore,Nasva Offshore,,0,Planned,,984.0870188, ,
51,22.09,59.12,Estonia,Sunly SW1,Sunly SW1,,84,Planned,,19392.69232, ,
52,21.61,57.83,Estonia,Sunly SW10,Sunly SW10,,72,Planned,,25851.33145, ,
53,21.96,59.07,Estonia,Sunly SW2,Sunly SW2,,114,Planned,,15080.9391, ,
54,21.77,58.95,Estonia,Sunly SW3,Sunly SW3,,144,Planned,,15706.99356, ,
55,21.84,58.91,Estonia,Sunly SW4,Sunly SW4,,132,Planned,,11615.19806, ,
56,23.34,58.11,Estonia,Tuuletraal,Tuuletraal,,1050,Planned,,31280.16435, ,
57,24.56,65.658,Finland,Ajos 1,Ajos 1,1,3,Dismantled,2005,14.59668308,2016,
58,24.5,65.667,Finland,Ajos 2-3,Ajos 2-3,2,6,Dismantled,2008,617.8415592,2016,
59,24.551,65.658,Finland,Ajos 4,Ajos 4,1,3,Dismantled,2008,53.04014984,2016,
60,24.563,65.65,Finland,Ajos 5,Ajos 5,1,3,Dismantled,2007,627.5147217,2016,
61,24.551,65.658,Finland,Ajos 6-7,Ajos 6-7,2,6,Dismantled,2008,53.04014984,2016,
62,24.551,65.658,Finland,Ajos 8-9-10-11,Ajos 8-9-10-11,4,12,Dismantled,2008,53.04014984,2016,
63,24.545,65.668,Finland,Ajos Repowering,Ajos Repowering,8,26.4,Production,2017,787.9264653, ,
64,24.545,65.668,Finland,Ajos Repowering,Ajos Repowering,5,16,Production,2017,787.9264653, ,
65,19.47,62.43,Finland,Bothnia,Bothnia,,0,Planned,,70340.17028, ,
66,19.54,61.93,Finland,Bothnia West,Bothnia West,,0,Planned,,90962.24422, ,
67,23.85,65.03,Finland,Halla,Halla,,1920,Planned,,33096.25476, ,
68,23.89,59.86,Finland,Inkoo,Inkoo,60,300,Planned,,4411.254665, ,
69,24.51,65.64,Finland,Kemi Ajos III,Kemi Ajos III,,189,Planned,,1272.295508, ,
70,21.84,63.79,Finland,Laine,Laine,,1800,Planned,,31855.12917, ,
71,20.46,59.83,Finland,Noatun,Noatun,,3000,Planned,,4968.366282, ,
72,20.49,59.71,Finland,Noatun Syd,Noatun Syd,,3000,Planned,,14040.41979, ,
73,20.31,62.67,Finland,Norrskar,Norrskar,,1550,Planned,,37726.72135, ,
74,21.35,61.62,Finland,Pori Offshore 1,Pori Offshore 1,1,2.3,Production,2010,918.3750599, ,
75,21.26,61.67,Finland,Pori-Tahkoluoto,Pori-Tahkoluoto,,0,Planned,,4409.467396, ,
76,21.26,61.608,Finland,Pori-Tahkoluoto,Pori-Tahkoluoto,10,42,Production,2017,5511.385051, ,
77,24.4,64.78,Finland,Raahe,Raahe,24,72,Planned,,7455.991538, ,
78,21.82,63.79,Finland,Reimari,Reimari,,3600,Planned,,32691.16669, ,
79,21.3,61.71,Finland,Tahkoluoto demonstration,Tahkoluoto demonstration,2,30,Approved,,4185.066742, ,
80,19.74,60.75,Finland,Vagskar,Vagskär,98,1960,Planned,,33035.5802, ,
81,21.92,63.86,Finland,Voima,Voima,,1500,Planned,,32503.27472, ,
82,21.03,61.6,Finland,Wellamo,Wellamo,,2000,Planned,,16579.77092, ,
83,4.92,43.31,France,AFLOWT France,AFLOWT France,,6,Planned,,5500.835013, ,
84,-2.71,47.41,France,Eolink 20 MW Prototype,Eolink 20 MW Prototype,,20,Planned,,6414.32643, ,
85,-2.71,47.41,France,Eolink Commercial,Eolink Commercial,,250,Planned,,6414.32643, ,
86,-2.78,47.24,France,Eolink Demonstrateur,Eolink Démonstrateur,,5,Approved,,10339.6517, ,
87,-2.71,47.41,France,Eolink GW Scale,Eolink GW Scale,,1000,Planned,,6414.32643, ,
88,-4.562,48.352,France,Eolink Prototype,Eolink Prototype,1,0.2,Dismantled,2018,406.0453311, ,
89,0.454,49.981,France,Fecamp Offshore,Fécamp Offshore,71,497,Construction,,16941.90378, ,
90,-2.778,47.238,France,FLOATGEN Demonstrator 1  IDEOL Gamesa,FLOATGEN Demonstrator 1  IDEOL Gamesa,1,2,Production,2018,10604.74102, ,
91,3.27,42.81,France,Golfe du Lion,Golfe du Lion,3,30,Construction,,18817.98393, ,
92,3.36,43.04,France,Gruissan,Gruissan,,30,Construction,,20197.40111, ,
93,3.4,42.9,France,Ideol & Quadran Floating Project,Ideol & Quadran Floating Project,,500,Planned,,27892.70008, ,
94,-1.974,47.282,France,Le Carnet,Le Carnet,1,6,Dismantled,2012,5304.03498,2020,
95,4.91,43.31,France,NextFloat,NextFloat,,6,Planned,,4796.078163, ,
96,4.81,43.18,France,Provence Grand Large,Provence Grand Large,3,25.2,Construction,,16766.3112, ,
97,-2.778,47.24,France,SEM-REV,SEM-REV,,8,Production,2015,10400.68077, ,
98,7.8,54.21,Germany,AquaPrimus,AquaPrimus,,28,Planned,,5263.970474, ,
99,12.13,54.16,Germany,Breitling,Breitling,1,2.5,Production,2006,358.7922517, ,
100,7.21,53.33,Germany,Emden Offshore,Emden Offshore,1,4.5,Production,2004,378.400967, ,
101,12.61,54.61,Germany,Gennaker,Gennaker,103,865.2,Approved,,14212.01871, ,
102,8.104,53.637,Germany,Hooksiel,Hooksiel,1,5,Dismantled,2008,758.4019571,2016,
103,25.02,35.72,Greece,Aegean Islands,Aegean Islands,,0,Planned,,31873.25497, ,
104,19.44,39.87,Greece,Diapontia Wind phase Five,Diapontia Wind phase Five,4,20,Planned,,910.6565296, ,
105,19.45,39.8,Greece,Diapontia Wind phase Nine,Diapontia Wind phase Nine,6,30,Planned,,4909.969733, ,
106,19.48,39.87,Greece,Diapontia Wind phase Seven,Diapontia Wind phase Seven,3,15,Planned,,4125.546608, ,
107,19.45,39.86,Greece,Diapontia Wind phase Six,Diapontia Wind phase Six,4,20,Planned,,1494.483331, ,
108,26.26,38.55,Greece,Musica 1,Musica 1,,0,Planned,,2751.752447, ,
109,25.91,38.41,Greece,Musica 2,Musica 2,,0,Planned,,4009.577221, ,
110,25.85,40.83,Greece,Thrakiki Wind 1,Thrakiki Wind 1,,24,Planned,,1711.239098, ,
111,25.81,40.84,Greece,Thrakiki Wind 1,Thrakiki Wind 1,,24,Planned,,1120.366528, ,
112,25.78,40.84,Greece,Thrakiki Wind 1,Thrakiki Wind 1,,24,Planned,,1214.251514, ,
113,25.84,40.83,Greece,Thrakiki Wind 1,Thrakiki Wind 1,,24,Planned,,1924.170218, ,
114,25.81,40.83,Greece,Thrakiki Wind 1,Thrakiki Wind 1,,24,Planned,,2228.273086, ,
115,25.84,40.82,Greece,Thrakiki Wind 1,Thrakiki Wind 1,,24,Planned,,3029.678313, ,
116,25.97,40.81,Greece,Thrakiki Wind 1,Thrakiki Wind 1,,24,Planned,,1918.792909, ,
117,25.97,40.8,Greece,Thrakiki Wind 1,Thrakiki Wind 1,,24,Planned,,2472.113007, ,
118,25.97,40.79,Greece,Thrakiki Wind 1,Thrakiki Wind 1,,24,Planned,,2868.281717, ,
119,-8.87,54.42,Ireland,Aniar Offshore Array,Aniar Offshore Array,,500,Planned,,12758.76014, ,
120,-9.11,54.59,Ireland,Aniar Offshore Array,Aniar Offshore Array,,500,Planned,,19210.47663, ,
121,-8.9,54.9,Ireland,Arranmore Wind,Arranmore Wind,,1000,Planned,,20102.22746, ,
122,-10.26,54.27,Ireland,Atlantic Marine Energy Test Site,Atlantic Marine Energy Test Site,,10,Test site,,10314.88811, ,
123,-5.8,52.99,Ireland,Banba Wind,Banba Wind,,1000,Planned,,13553.62732, ,
124,-6.37,51.84,Ireland,Blackwater,Blackwater,,1500,Planned,,34688.58512, ,
125,-6.51,51.98,Ireland,Bore Array,Bore Array,,500,Planned,,16347.51243, ,
126,-6.55,51.99,Ireland,Celtic Horizon,Celtic Horizon,,700,Planned,,14206.14707, ,
127,-6.76,51.51,Ireland,Celtic Offshore Renewable Energy,Celtic Offshore Renewable Energy,,1680,Planned,,67589.98255, ,
128,-7.1,51.5,Ireland,Celtic Two,Celtic Two,,800,Planned,,64429.09864, ,
129,-10.27,52.71,Ireland,Clarus,Clarus,,1000,Planned,,27917.57028, ,
130,-8.98,51.25,Ireland,Cork Offshore Wind,Cork Offshore Wind,,1000,Planned,,31014.59518, ,
131,-6.1,53.75,Ireland,Dublin,Dublin,,2500,Planned,,9205.841808, ,
132,-6.88,51.95,Ireland,East Celtic,East Celtic,,900,Planned,,19662.61629, ,
133,-8.08,51.36,Ireland,Emerald - Commercial,Emerald - Commercial,,700,Planned,,41647.6605, ,
134,-8.08,51.36,Ireland,Emerald - Demonstration,Emerald - Demonstration,,300,Planned,,41647.6605, ,
135,-5.72,53.25,Ireland,Greystones,Greystones,,1000,Planned,,24171.78649, ,
136,-7.43,55.69,Ireland,Haven Offshore Array,Haven Offshore Array,,0,Planned,,29137.58406, ,
137,-10.06,52.45,Ireland,Ilen Array,Ilen Array,,1500,Planned,,8416.235749, ,
138,-7.59,51.61,Ireland,Inis Ealga FOW,Inis Ealga FOW,,1000,Planned,,35343.06574, ,
139,-10.25,52.37,Ireland,Inis Offshore Wind Kerry,Inis Offshore Wind Kerry,,1000,Planned,,10083.52626, ,
140,-5.67,53.25,Ireland,Inis Offshore Wind Leinster,Inis Offshore Wind Leinster,,500,Planned,,27481.82176, ,
141,-9.88,52.78,Ireland,Inis Offshore Wind Munster,Inis Offshore Wind Munster,,1000,Planned,,17174.93414, ,
142,-8.26,51.47,Ireland,Kinsale,Kinsale,,1000,Planned,,24161.79795, ,
143,-5.78,52.81,Ireland,Latitude 52,Latitude 52,,1000,Planned,,19402.09475, ,
144,-5.8,53.56,Ireland,Lir Offshore Array,Lir Offshore Array,,2000,Planned,,13995.82862, ,
145,-5.78,52.65,Ireland,Mac Lir Offshore Wind,Mac Lir Offshore Wind,,1000,Planned,,26066.33044, ,
146,-7.38,55.75,Ireland,Malin Wind,Malin Wind,,1000,Planned,,34479.73628, ,
147,-10.33,52.45,Ireland,Moneypoint Offshore One,Moneypoint Offshore One,,400,Planned,,20416.31856, ,
148,-10.58,52.56,Ireland,Moneypoint Offshore Two,Moneypoint Offshore Two,,1100,Planned,,38973.07209, ,
149,-5.81,53.54,Ireland,North Irish Sea Array 2,North Irish Sea Array 2,,300,Planned,,13286.99588, ,
150,-5.76,53.54,Ireland,North Irish Sea Array 3,North Irish Sea Array 3,,250,Planned,,16386.22581, ,
151,-6.9,51.66,Ireland,Pearla Offshore Windfarm,Péarla Offshore Windfarm,,1000,Planned,,51821.38941, ,
152,-5.84,52.92,Ireland,Realt na Mara,Réalt na Mara,,1600,Planned,,11667.73528, ,
153,-11.06,52.46,Ireland,Rian Offshore Array,Rian Offshore Array,,2500,Planned,,48923.54729, ,
154,-11.33,52.29,Ireland,Rian Offshore Array,Rian Offshore Array,,0,Planned,,51419.34088, ,
155,-6.06,52.39,Ireland,Shelmalere,Shelmalere,,1000,Planned,,17654.75513, ,
156,-9.27,53.23,Ireland,SmartBay,SmartBay,,0,Planned,,1424.280186, ,
157,-10.1,52.61,Ireland,SSE Tarbert,SSE Tarbert,,0,Planned,,12236.54938, ,
158,-5.83,53.24,Ireland,Sunrise Wind (IE),Sunrise Wind (IE),,1330,Planned,,17107.54645, ,
159,-9.97,52.56,Ireland,Tralee,Tralee,,2500,Planned,,2140.106879, ,
160,-8.85,51.38,Ireland,Tulca Offshore Array,Tulca Offshore Array,,1650,Planned,,18193.85327, ,
161,-8.82,51.38,Ireland,Tulca Offshore Array,Tulca Offshore Array,,2240,Planned,,19099.28738, ,
162,-10.06,51.43,Ireland,Urban Sea,Urban Sea,,4000,Planned,,16354.16555, ,
163,-10.81,51.83,Ireland,Valentia,Valentia,,920,Planned,,19409.60345, ,
164,-10.95,51.96,Ireland,Valentia,Valentia,,620,Planned,,23496.50135, ,
165,-7.35,51.36,Ireland,Voyage Offshore Array,Voyage Offshore Array,,2900,Planned,,67873.23568, ,
166,-8.93,55.54,Ireland,West Ireland,West Ireland,,2000,Planned,,52006.76065, ,
167,-10.25,52.84,Ireland,Western Star Floating Wind,Western Star Floating Wind,,1350,Planned,,21255.37708, ,
168,-6.74,51.57,Ireland,Wexford,Wexford,,2500,Planned,,60765.5433, ,
169,-5.7,52.86,Ireland,Wicklow,Wicklow,,500,Planned,,22755.11903, ,
170,14.4,42.54,Italy,Abruzzo 1,Abruzzo 1,,1760,Planned,,15738.35665, ,
171,12.79,44.34,Italy,Agnes 1,Agnes 1,,120,Planned,,33442.38329, ,
172,12.73,44.56,Italy,Agnes 2,Agnes 2,,400,Planned,,35486.6891, ,
173,16.59,42.15,Italy,APENESTE Offshore,APENESTE Offshore,,915,Planned,,32573.84807, ,
174,9.62,43.32,Italy,Atis,Atis,,864,Planned,,24701.04492, ,
175,17.44,41.74,Italy,Bari,Bari,,600,Planned,,80280.02152, ,
176,16.39,41.68,Italy,Barium Bay,Barium Bay,,1100,Planned,,19715.01549, ,
177,16.74,41.45,Italy,Barletta Offshore,Barletta Offshore,,840,Planned,,29216.69684, ,
178,18.05,40.9,Italy,Bluwind Brindisi,Bluwind Brindisi,,840,Planned,,25755.40727, ,
179,11.23,42.01,Italy,Bluwind Civitavecchia,Bluwind Civitavecchia,,870,Planned,,27196.12495, ,
180,16.69,41.89,Italy,Bluwind Manfredonia,Bluwind Manfredonia,,825,Planned,,41562.54238, ,
181,14.82,36.41,Italy,Bluwind Pozzallo,Bluwind Pozzallo,,975,Planned,,32491.29526, ,
182,16.83,41.49,Italy,BNW,BNW,,504,Planned,,35702.26082, ,
183,17.96,40.89,Italy,Brenda Energia,Brenda Energia,,741,Planned,,22821.14139, ,
184,17.96,40.91,Italy,BRN,BRN,,504,Planned,,25025.64988, ,
185,16.87,38.45,Italy,Calabria,Calabria,37,555,Planned,,25216.5215, ,
186,11.83,37.76,Italy,Calypso,Calypso,,600,Planned,,28887.34114, ,
187,18.11,40.59,Italy,Centrale Eolica Offshore Brindisi,Centrale Eolica Offshore Brindisi,,108,Planned,,5596.065427, ,
188,11.35,42.14,Italy,Civitavecchia A,Civitavecchia A,,225,Planned,,22685.71805, ,
189,11.29,42.07,Italy,Civitavecchia B,Civitavecchia B,,375,Planned,,23916.43305, ,
190,8.3,38.75,Italy,Del Toro 1,Del Toro 1,,293,Planned,,15370.4536, ,
191,8.16,38.88,Italy,Del Toro 2,Del Toro 2,,293,Planned,,21813.08609, ,
192,17.94,39.9,Italy,Dorada,Dorada,108,1620,Planned,,9471.452536, ,
193,12.07,37.34,Italy,Elymo A,Elymo A,,858,Planned,,53301.98029, ,
194,12.35,36.92,Italy,Elymo B,Elymo B,,435,Planned,,30026.42477, ,
195,14.67,36.54,Italy,Eureka Wind,Eureka Wind,,570,Planned,,19755.03932, ,
196,14.78,36.21,Italy,Euribia,Euribia,,660,Planned,,40472.33562, ,
197,16.66,38.62,Italy,Fortevento,Fortevento,,585,Planned,,8350.591185, ,
198,16.21,41.59,Italy,Gargano Sud,Gargano Sud,85,340,Planned,,16649.75409, ,
199,17.09,40.38,Italy,Golfo di Taranto,Golfo di Taranto,,1500,Planned,,9004.045827, ,
200,15.14,35.75,Italy,Gulf of Gela,Gulf of Gela,,384,Planned,,52516.10548, ,
201,12.12,37.54,Italy,Hannibal,Hannibal,,250,Planned,,36131.27854, ,
202,16.88,42.09,Italy,Hope Group Manfredonia,Hope Group Manfredonia,,945,Planned,,54800.29771, ,
203,12.44,37.41,Italy,HyMed,HyMed,,3200,Planned,,26186.88164, ,
204,12.06,37.8,Italy,Ichnusa,Ichnusa,42,504,Planned,,16188.385, ,
205,16.9,39.98,Italy,Ionio,Ionio,28,420,Planned,,23296.56369, ,
206,18.46,40.51,Italy,Iron Solar,Iron Solar,,525,Planned,,18609.38934, ,
207,18.02,40.69,Italy,Kailia Energia,Kailia Energia,,1176,Planned,,3618.608129, ,
208,17.16,39.09,Italy,Krimisa,Krimisa,,1100,Planned,,2180.515025, ,
209,18.46,40.51,Italy,Lupiae Maris,Lupiae Maris,,525,Planned,,18609.38934, ,
210,13.12,43.93,Italy,Marche 1,Marche 1,,500,Planned,,11592.56203, ,
211,16.37,41.64,Italy,Maxima Energia - 1,Maxima Energia - 1,,1140,Planned,,21153.47173, ,
212,16.37,41.6,Italy,Maxima Energia - 2,Maxima Energia - 2,,1140,Planned,,24282.756, ,
213,11.73,37.46,Italy,Mazara del Vallo Offshore,Mazara del Vallo Offshore,,1110,Planned,,61559.83612, ,
214,12.55,37.05,Italy,Mazara del Vallo Offshore 2,Mazara del Vallo Offshore 2,,795,Planned,,52717.97597, ,
215,11.98,37.22,Italy,Mazara del Vallo Offshore 3,Mazara del Vallo Offshore 3,,810,Planned,,41945.30091, ,
216,12.08,37.34,Italy,MDV - Mazara del Vallo,MDV - Mazara del Vallo,,504,Planned,,52663.39862, ,
217,19.44,39.67,Italy,Medio Adriatico,Medio Adriatico,,800,Planned,,10491.78483, ,
218,11.43,37.93,Italy,MedWind,MedWind,,2793,Planned,,53379.39877, ,
219,18.75,40.3,Italy,Messapia,Messapia,,1300,Planned,,25833.0483, ,
220,16.96,38.76,Italy,Minervia Energia,Minervia Energia,,675,Planned,,17026.7404, ,
221,11.48,42.26,Italy,MoDiCa,MoDiCa,,510,Planned,,10693.75693, ,
222,16.55,41.39,Italy,MoDiCa 2,MoDiCa 2,,510,Planned,,15865.12128, ,
223,7.78,39.11,Italy,Molise,Molise,,1800,Planned,,38517.32241, ,
224,19.36,39.06,Italy,Monopoli,Monopoli,,600,Planned,,61588.38379, ,
225,16.6,41.8,Italy,NEREUS Offshore,NEREUS Offshore,,2205,Planned,,33274.74452, ,
226,9.12,39.02,Italy,Nora Energia 1,Nora Energia 1,,795,Planned,,7329.507789, ,
227,9.67,39.01,Italy,Nora Energia 2,Nora Energia 2,,600,Planned,,13809.48218, ,
228,10.29,41.09,Italy,Northwestern Tyrrhenian Sea,Northwestern Tyrrhenian Sea,,1008,Planned,,49323.92702, ,
229,9.07,38.72,Italy,Nuovo Porto Pino,Nuovo Porto Pino,,705,Planned,,25062.27805, ,
230,9.86,41.21,Italy,Nurax,Nurax,,462,Planned,,25406.04421, ,
231,18.57,39.79,Italy,Odra Energia,Odra Energia,,1350,Planned,,15724.14329, ,
232,12.31,38.07,Italy,Ostro,Ostro,,600,Planned,,5855.157376, ,
233,10.29,41.09,Italy,Poseidon,Poseidon,72,1008,Planned,,49323.92702, ,
234,15.14,36.26,Italy,Pozzallo Offshore,Pozzallo Offshore,,800,Planned,,42634.09371, ,
235,18.81,39.68,Italy,Puglia 1,Puglia 1,60,900,Planned,,39065.0932, ,
236,16.66,41.28,Italy,Puglia A,Puglia A,,1005,Planned,,9489.889017, ,
237,16.69,41.25,Italy,Puglia B,Puglia B,,930,Planned,,6708.387967, ,
238,15.34,37.08,Italy,Ragusa Offshore,Ragusa Offshore,,945,Planned,,3472.920119, ,
239,17.53,38.4,Italy,Repower FOWT Scandale,Repower FOWT Scandale,,495,Planned,,66153.92079, ,
240,17.51,38.39,Italy,Repower FOWT Sicilia,Repower FOWT Sicilia,,495,Planned,,66091.51578, ,
241,12.78,44.12,Italy,Rimini,Rimini,,330,Planned,,15825.35907, ,
242,12.97,44.44,Italy,Romagna 3,Romagna 3,,320,Planned,,51069.45614, ,
243,7.99,38.96,Italy,San Pietro Nord,San Pietro Nord,,510,Planned,,27849.20567, ,
244,9.09,38.91,Italy,San Pietro Sud,San Pietro Sud,,504,Planned,,10167.5753, ,
245,18.82,39.65,Italy,Santa Maria di Leuca,Santa Maria di Leuca,,675,Planned,,41216.70448, ,
246,7.92,40.18,Italy,Sardegna,Sardegna,,480,Planned,,38609.67517, ,
247,8.8,38.74,Italy,Sardegna 1,Sardegna 1,,550,Planned,,15460.48741, ,
248,8.55,38.74,Italy,Sardegna 2,Sardegna 2,,825,Planned,,15901.06538, ,
249,9.96,41.21,Italy,Sardinia Northeast - AvenHexicon,Sardinia Northeast - AvenHexicon,,2150,Planned,,32746.45011, ,
250,7.84,40.49,Italy,Sardinia Northwest - AvenHexicon,Sardinia Northwest - AvenHexicon,,1350,Planned,,27874.84539, ,
251,8.5,38.53,Italy,Sardinia South 1,Sardinia South 1,,1600,Planned,,37227.76915, ,
252,8.76,38.55,Italy,Sardinia South 2,Sardinia South 2,,750,Planned,,36138.44531, ,
253,14.56,36.43,Italy,Scicli,Scicli,,750,Planned,,34193.70151, ,
254,11.46,42.15,Italy,Seabass,Seabass,,810,Planned,,21172.86981, ,
255,11.97,37.21,Italy,Seawind Mazara,Seawind Mazara,,798,Planned,,40802.295, ,
256,12.56,37.15,Italy,Sicilia 495 MW,Sicilia 495 MW,,495,Planned,,46335.65345, ,
257,13.41,35.92,Italy,Sicilia A,Sicilia A,,1020,Planned,,48857.75475, ,
258,13.41,35.92,Italy,Sicilia B,Sicilia B,,1005,Planned,,48857.75475, ,
259,12.08,37.34,Italy,Sicily,Sicily,,504,Planned,,52663.39862, ,
260,13.21,37.16,Italy,Sicily South - AvenHexicon,Sicily South - AvenHexicon,,1200,Planned,,24616.52451, ,
261,17.135,40.485,Italy,Taranto Offshore,Taranto Offshore,10,30,Production,2022,1422.356469, ,
262,8.59,38.53,Italy,Thalassa,Thalassa,,525,Planned,,37188.42988, ,
263,9.51,41.37,Italy,Tibula Energia,Tibula Energia,,975,Planned,,12021.75123, ,
264,11.88,37.4,Italy,Trinacria,Trinacria,56,840,Planned,,62031.71918, ,
265,12.82,44.96,Italy,Veneto 1,Veneto 1,,500,Planned,,21020.94931, ,
266,18.02,40.9,Italy,Vieste,Vieste,,1200,Planned,,24919.04805, ,
267,9.61,40.95,Italy,Zefiro,Zefiro,168,2016,Planned,,1988.268461, ,
268,20.95,56.73,Latvia,JK Energy,JK Energy,,900,Planned,,6683.840607, ,
269,20.3,55.6,Latvia,Kurzeme Offshore,Kurzeme Offshore,,1000,Planned,,50647.39834, ,
270,5.588,52.598,Netherlands,Irene Vorrink I,Irene Vorrink I,19,11.4,Dismantled,1996,6875.12849,2022,
271,5.588,52.598,Netherlands,Irene Vorrink II,Irene Vorrink II,9,5.4,Dismantled,1997,6875.12849,2022,
272,5.12,52.8,Netherlands,Lely,Lely,4,2,Dismantled,1997,15813.80547,2016,
273,5.58,52.72,Netherlands,Westermeerdijk buitendijks,Westermeerdijk buitendijks,48,144,Production,2016,6769.24356, ,
274,5.26,53,Netherlands,Windpark Fryslan,Windpark Fryslân,89,382.7,Production,2021,4100.121942, ,
275,5.58,52.6,Netherlands,Windplanblauw,Windplanblauw,24,132,Construction,,6714.939265, ,
276,4.99,59.14,Norway,Bluewater - Metcentre,Bluewater - Metcentre,,15,Planned,,10442.38513, ,
277,7.76,64.32,Norway,Draugen,Draugen,,0,Planned,,58897.11242, ,
278,5.01,59.15,Norway,Flagship - Metcentre,Flagship - Metcentre,,10,Approved,,9225.51976, ,
279,22.12,71.84,Norway,GoliatVind,GoliatVind,,75,Planned,,107132.5416, ,
280,5.03,59.14,Norway,Hywind Metcentre,Hywind Metcentre,1,2.3,Production,2009,8167.630057, ,
281,2.7,61.33,Norway,Hywind Tampen,Hywind Tampen,11,88,Production,2023,100489.0735, ,
282,5.078,59.156,Norway,Marine Energy Test Centre Karmoy Fixed,Marine Energy Test Centre Karmoy Fixed,2,10,Test site,2019,5360.022566, ,
283,5.078,59.156,Norway,Marine Energy Test Centre Karmoy Floating,Marine Energy Test Centre Karmoy Floating,2,10,Test site,2019,5360.022566, ,
284,5.2,59.4,Norway,SeaTwirl S2,SeaTwirl S2,1,1,Approved,,374.2737102, ,
285,4.92,56.78,Norway,Sorlige Nordsjo II,Sorlige Nordsjo II,,1000,Planned,,176650.0102, ,
286,5,59.15,Norway,TetraSpar Demonstrator,TetraSpar Demonstrator,,3.6,Production,2021,9479.077309, ,
287,5,59.14,Norway,TwinWay - Metcentre,TwinWay - Metcentre,,6,Planned,,9872.900814, ,
288,4.43,59.41,Norway,Utsira Nord,Utsira Nord,,500,Planned,,26725.94109, ,
289,4.49,59.27,Norway,Utsira Nord,Utsira Nord,,500,Planned,,20316.07671, ,
290,4.54,59.13,Norway,Utsira Nord,Utsira Nord,,500,Planned,,24388.41443, ,
291,5.54,58.98,Norway,WIN WIN prototype,WIN WIN prototype,,6,Planned,,1373.629067, ,
292,4.96,62.01,Norway,Windcatcher,Windcatcher,,75,Planned,,1267.844529, ,
293,15.16,54.37,Poland,Licence Application No. 76,Licence Application No. 76,,14,Planned,,26149.80157, ,
294,-8.79,41.36,Portugal,Aguçadoura,Aguçadoura,,1000,Planned,,2360.228051, ,
295,-9.46,40.33,Portugal,Botafogo,Botafogo,,990,Planned,,49845.67715, ,
296,-9.14,41.61,Portugal,Creoula,Creoula,,1440,Planned,,25435.73895, ,
297,-9.09,40.11,Portugal,Nortada,Nortada,,2000,Planned,,17265.34408, ,
298,-16.4,33.13,Portugal,Offshore Island Porto Santo,Offshore Island Porto Santo,,10,Planned,,4065.208957, ,
299,-9.05,41.72,Portugal,Viana do Castelo,Viana do Castelo,,600,Planned,,14473.39584, ,
300,-8.91,41.48,Portugal,WavEC,WavEC,,2,Planned,,10325.87023, ,
301,-9.12,39.88,Portugal,WindFloat Atlantic,WindFloat Atlantic,3,25,Production,2020,11992.72087, ,
302,-8.85,41.46,Portugal,WindFloat Prototype,WindFloat Prototype,1,2,Dismantled,2012,6019.182706,2016,
303,28.67,43.89,Romania,Black Sea 1,Black Sea 1,,500,Planned,,4083.551254, ,
304,28.69,43.94,Romania,Black Sea 2,Black Sea 2,,1400,Planned,,4118.987119, ,
305,-3.71,36.66,Spain,Albaicin,Albaicin,,510,Planned,,6912.988645, ,
306,-15.38,27.82,Spain,Alisio Offshore,Alisio Offshore,,49.9,Planned,,3959.873127, ,
307,-6.18,36.23,Spain,Almadraba,Almadraba,,495,Planned,,7960.790573, ,
308,-2.41,36.77,Spain,Alwind,Alwind,,300,Planned,,4836.639196, ,
309,-15.47,27.7,Spain,Andamana,Andamana,,240,Planned,,9573.47496, ,
310,-15.39,28.05,Spain,Archime 3,Archime 3,,1.5,Planned,,2138.234592, ,
311,-15.56,27.65,Spain,Atlantida,Atlantida,,300,Planned,,9433.525535, ,
312,-15.38,28.09,Spain,Bandama Offshore,Bandama Offshore,,195,Planned,,2876.103465, ,
313,-8.42,43.43,Spain,Breogan,Breogan,,510,Planned,,4756.971147, ,
314,-15.35,27.83,Spain,Cabildo,Cabildo,,49.9,Planned,,5149.766499, ,
315,-15.39,27.78,Spain,CanArray,CanArray,,48,Planned,,5205.567661, ,
316,-15.38,27.78,Spain,CanArray II,CanArray II,,132,Planned,,6053.231409, ,
317,-15.45,28.34,Spain,Canary Island Test Area,Canary Island Test Area,,310,Test site,,20234.40281, ,
318,-15.6,28.23,Spain,Canawind 1,Canawind 1,,250,Planned,,8533.283903, ,
319,-15.57,28.22,Spain,Canawind 2,Canawind 2,,250,Planned,,8207.455265, ,
320,-9.31,41.91,Spain,Celta II,Celta II,,510,Planned,,35102.80538, ,
321,-15.35,27.84,Spain,Colombino,Colombino,,49.9,Planned,,4623.878751, ,
322,3.15,41.63,Spain,Creus,Creus,,510,Planned,,18611.49727, ,
323,-15.36,28.04,Spain,Elican,Elican,1,5,Production,2018,3211.174072, ,
324,-15.35,28.05,Spain,Floating Power Plant - PLOCAN,Floating Power Plant - PLOCAN,,8,Approved,,4643.189864, ,
325,-15.392,27.765,Spain,Flocan 5,Flocan 5,5,25,Planned,,6224.221359, ,
326,-15.59,28.65,Spain,FLOTANT,FLOTANT,,10,Planned,,54037.35598, ,
327,-9.35,43.11,Spain,Galwind,Galwind,,1000,Planned,,7371.829206, ,
328,-15.4,27.85,Spain,Gamesa 5MW Test Turbine,Gamesa 5MW Test Turbine,1,4.5,Test site,2013,22.36593438, ,
329,-2.87,43.52,Spain,GEROA,GEROA,,45,Planned,,9344.529923, ,
330,-15.37,27.79,Spain,Gofio,Gofio,,50,Planned,,6469.002336, ,
331,-15.48,27.65,Spain,Gran Canaria Offshore,Gran Canaria Offshore,,210,Planned,,14009.81806, ,
332,-16.26,28.43,Spain,Granadilla,Granadilla,,50,Planned,,1082.323589, ,
333,-15.56,27.67,Spain,Guanche,Guanche,,50,Planned,,7332.08511, ,
334,-1.84,36.87,Spain,Mar de Agata,Mar de Agata,,300,Planned,,9514.412806, ,
335,-15.3,27.91,Spain,Marino Drago,Marino Drago,,260,Planned,,8347.726317, ,
336,-15.92,27.91,Spain,Marino Maresia,Marino Maresia,,254,Planned,,9727.838334, ,
337,3.43,42.28,Spain,Medfloat Pilot Parc,Medfloat Pilot Parc,,50,Planned,,10028.18534, ,
338,-16.72,28.43,Spain,Mencey,Mencey,,150,Planned,,6918.857716, ,
339,-15.35,28.05,Spain,Multiplat 2,Multiplat 2,,10,Planned,,4643.189864, ,
340,-18.08,27.65,Spain,Musica 4,Musica 4,,0,Planned,,4560.567976, ,
341,-4.34,36.64,Spain,Nao Victoria,Nao Victoria,,990,Planned,,7992.516706, ,
342,-2.85,43.59,Spain,Nautilus (ES),Nautilus (ES),,2,Planned,,16461.40101, ,
343,-8.45,44.13,Spain,Nordes Phase 1,Nordes Phase 1,,525,Planned,,56960.28129, ,
344,-8.45,44.13,Spain,Nordes Phase 2,Nordes Phase 2,,675,Planned,,56960.28129, ,
345,0.198,39.29,Spain,Ocean H2,Ocean H2,,6,Planned,,37629.06633, ,
346,-15.38,28.05,Spain,Pivot Buoy - PLOCAN,Pivot Buoy - PLOCAN,,0.22,Construction,,2796.178625, ,
347,-15.36,28.04,Spain,Plocan,Plocan,5,50,Production,2017,3211.174072, ,
348,-15.59,28.64,Spain,PLOCAN hybrid floating,PLOCAN hybrid floating,,2,Planned,,52946.79103, ,
349,-15.37,28.04,Spain,PLOCAN W2Power WIP10 Scale prototype,PLOCAN W2Power WIP10 Scale prototype,1,0.2,Dismantled,,2592.062956, ,
350,-15.35,27.86,Spain,Sahariano,Sahariano,,49.9,Planned,,4137.384509, ,
351,-15.53,27.66,Spain,Salinas I,Salinas I,,49.9,Planned,,9791.659921, ,
352,-15.51,27.68,Spain,San Augustin I,San Augustin I,,49.9,Planned,,9420.232152, ,
353,-15.34,27.84,Spain,San Borondon,San Borondón,,238,Planned,,5579.290492, ,
354,-7.99,43.95,Spain,San Brandan,San Brandan,,490,Planned,,21519.80191, ,
355,-7.67,43.97,Spain,San Cibrao,San Cibrao,,490,Planned,,20072.03874, ,
356,-15.35,28.05,Spain,SeaWorthy,SeaWorthy,,4.3,Planned,,4643.189864, ,
357,-15.56,27.67,Spain,Talasa,Talasa,,50,Planned,,7332.08511, ,
358,-15.48,27.67,Spain,Tarahal,Tarahal,,225,Planned,,12448.62749, ,
359,-15.59,28.26,Spain,The Wheel,The Wheel,,6,Planned,,11896.67207, ,
360,-13.49,28.96,Spain,Timanfaya,Timanfaya,,50,Planned,,2739.011945, ,
361,-15.56,27.69,Spain,Varuna,Varuna,,300,Planned,,5296.369375, ,
362,-8.32,43.63,Spain,Ventus Offshore,Ventus Offshore,,600,Planned,,6848.22643, ,
363,17.26,57.49,Sweden,Anemone,Anemone,,0,Planned,,16577.95363, ,
364,13.56,55.08,Sweden,Arkona Vindkraftpark,Arkona Vindkraftpark,,1200,Planned,,31342.54741, ,
365,14.95,54.99,Sweden,Aurora Offshore (SE),Aurora Offshore (SE),,5500,Planned,,1756.814155, ,
366,15.58,55.86,Sweden,Baltic Central Offshore,Baltic Central Offshore,,4000,Planned,,12705.8608, ,
367,16.51,55.42,Sweden,Baltic Edge,Baltic Edge,,1000,Planned,,6973.300354, ,
368,18.35,58.28,Sweden,Baltic Offshore Alpha,Baltic Offshore Alpha,,1960,Planned,,44955.82982, ,
369,16.17,55.61,Sweden,Baltic Offshore Beta,Baltic Offshore Beta,,3340,Planned,,34618.5021, ,
370,20.05,59.08,Sweden,Baltic Offshore Delta,Baltic Offshore Delta,,5000,Planned,,49176.07162, ,
371,20.08,59.23,Sweden,Baltic Offshore Delta North,Baltic Offshore Delta North,,2100,Planned,,39250.04254, ,
372,19.91,58.61,Sweden,Baltic Offshore Epsilon,Baltic Offshore Epsilon,,3000,Planned,,43588.70163, ,
373,14.96,55.96,Sweden,Blekinge Offshore AB,Blekinge Offshore AB,,1000,Planned,,8193.530806, ,
374,18.15,57.036,Sweden,Bockstigen Offshore,Bockstigen Offshore,5,2.75,Production,1998,2355.566195, ,
375,22.31,65.12,Sweden,Bores Krona,Bores Krona,,3400,Planned,,18224.47329, ,
376,21.63,63.83,Sweden,Bothnia Offshore Kappa,Bothnia Offshore Kappa,,2740,Planned,,30482.30312, ,
377,18.33,61.6,Sweden,Bothnia Offshore Lambda,Bothnia Offshore Lambda,,1500,Planned,,43337.31804, ,
378,22.95,64.89,Sweden,Bothnia Offshore Omega,Bothnia Offshore Omega,,1300,Planned,,53910.11867, ,
379,19.32,61.95,Sweden,Bothnia Offshore Sigma,Bothnia Offshore Sigma,,2740,Planned,,87925.83216, ,
380,13.39,55.61,Sweden,Cirrus,Cirrus,,2550,Planned,,21542.65563, ,
381,17.86,58.22,Sweden,Dyning,Dyning,,2000,Planned,,42149.62178, ,
382,19.6,58.79,Sweden,Erik Segersall,Erik Segersäll,,2000,Planned,,48768.25999, ,
383,19.6,58.79,Sweden,Erik Segersall,Erik Segersäll,,2000,Planned,,48768.25999, ,
384,19.6,58.79,Sweden,Erik Segersall,Erik Segersäll,,2000,Planned,,48768.25999, ,
385,18.94,61.85,Sweden,Eystrasalt,Eystrasalt,,4000,Planned,,70957.34128, ,
386,12.33,56.7,Sweden,Falkenberg-Halmstad,Falkenberg-Halmstad,,1000,Planned,,18482.14858, ,
387,18.23,61.09,Sweden,Gavle West,Gävle West,,4000,Planned,,49019.63331, ,
388,17.89,56.76,Sweden,Gotland,Gotland,,1500,Planned,,21925.46733, ,
389,10.55,58.67,Sweden,Heimdall,Heimdall,,2400,Planned,,29116.82604, ,
390,19.18,56.41,Sweden,Herkules I,Herkules I,,1000,Planned,,79295.74089, ,
391,19.45,56.83,Sweden,Herkules II,Herkules II,,1750,Planned,,63388.35454, ,
392,18.04,61.49,Sweden,Hudiksvall,Hudiksvall,,1500,Planned,,31104.81877, ,
393,18.03,58.07,Sweden,Kapheira,Kapheira,,2000,Planned,,37914.60931, ,
394,17.02,56.98,Sweden,Karehamn,Karehamn,16,48,Production,2013,5343.596212, ,
395,12.38,56.63,Sweden,Kattegatt,Kattegatt,,1500,Planned,,19125.9241, ,
396,17.63,56.95,Sweden,Kultje,Kultje,,2150,Planned,,30270.073, ,
397,17.67,58.65,Sweden,Langgrund,Langgrund,,0,Planned,,5268.066397, ,
398,17.34,58.51,Sweden,Langgrund II,Langgrund II,,0,Planned,,8452.403247, ,
399,23.07,65.05,Sweden,Lulea-Kalix I,Lulea-Kalix I,,1200,Planned,,43484.74987, ,
400,23.3,65.27,Sweden,Lulea-Kalix II,Lulea-Kalix II,,1800,Planned,,30164.49065, ,
401,10.58,58.16,Sweden,Mareld,Mareld,,2300,Planned,,41519.33699, ,
402,18.27,60.82,Sweden,Najaderna,Najaderna,,1000,Planned,,25022.45102, ,
403,17.34,57.45,Sweden,Neptune,Neptune,,2000,Planned,,16560.90464, ,
404,16.4,55.66,Sweden,Neptunus,Neptunus,,0,Planned,,34117.48427, ,
405,14.95,54.99,Sweden,Njord,Njord,,0,Planned,,1756.814155, ,
406,14.742,56.003,Sweden,Nogersund,Nogersund,1,0.22,Dismantled,1990,269.1342877,2008,
407,17.12,58.61,Sweden,Norra Klasgrunden,Norra Klasgrunden,,0,Planned,,2976.365199, ,
408,16.29,56.36,Sweden,Nya Utgrunden,Nya Utgrunden,,340,Planned,,7180.846001, ,
409,16.86,55.98,Sweden,Oland-Hoburg I,Oland-Hoburg I,,600,Planned,,36646.38753, ,
410,17.91,56.18,Sweden,Oland-Hoburg II,Oland-Hoburg II,,750,Planned,,82114.1615, ,
411,18.75,56.64,Sweden,Oland-Hoburg III,Oland-Hoburg III,,750,Planned,,42454.71312, ,
412,18.31,60.86,Sweden,Olof Skotkonung,Olof Skötkonung,,1750,Planned,,29905.95843, ,
413,17.64,58.55,Sweden,Oxelosund,Oxelösund,,600,Planned,,12931.72604, ,
414,19.57,57.4,Sweden,Pleione,Pleione,,0,Planned,,35162.20146, ,
415,23.73,65.37,Sweden,Polargrund,Polargrund,,1600,Planned,,18792.78371, ,
416,10.91,57.96,Sweden,Poseidon Nord,Poseidon Nord,,800,Planned,,28341.56953, ,
417,19.27,57.65,Sweden,Ran,Ran,,1800,Planned,,16852.64149, ,
418,11.3,58.25,Sweden,SeaTwirl 3MW,SeaTwirl 3MW,1,3,Dismantled,2011,3153.881745,2019,
419,17.35,57.38,Sweden,Simpevar,Simpevar,,800,Planned,,13720.64402, ,
420,12.91,55.64,Sweden,Sjollengrundet,Sjollengrundet,,300,Planned,,4773.589774, ,
421,10.25,58.41,Sweden,Skagerrak Offshore Gamma,Skagerrak Offshore Gamma,,2740,Planned,,47595.15782, ,
422,13.72,55.09,Sweden,Skane,Skane,,1500,Planned,,34108.3702, ,
423,19.84,58.58,Sweden,Skidbladner,Skidbladner,,2000,Planned,,38338.69639, ,
424,19.27,57.65,Sweden,Slite,Slite,,600,Planned,,16852.64149, ,
425,17.11,58.58,Sweden,Sodra Klasgrunden,Södra Klasgrunden,,0,Planned,,3699.636009, ,
426,17.12,55.64,Sweden,Sodra Victoria,Södra Victoria,,2000,Planned,,50066.5999, ,
427,11.14,58.38,Sweden,Sotenas Offshore Park,Sotenäs Offshore Park,,10,Planned,,2895.272704, ,
428,13.31,59.22,Sweden,Stenkalles grund,Stenkalles grund,,100,Approved,,108448.7926, ,
429,18.14,62.21,Sweden,Sundsvall,Sundsvall,,1200,Planned,,20658.94687, ,
430,13.58,55.29,Sweden,Sydkustens Vind,Sydkustens Vind,,500,Planned,,10537.19487, ,
431,13.3,55.16,Sweden,Triton,Triton,,0,Planned,,20011.89629, ,
432,16.28,56.344,Sweden,Utgrunden I,Utgrunden I,7,10.5,Dismantled,2000,7765.087598,2018,
433,20.73,63.55,Sweden,Vaktaren,Väktaren,,0,Planned,,4731.680313, ,
434,13.378,59.265,Sweden,Vanern,Vänern,7,21,Production,2009,113427.7349, ,
435,13.378,59.265,Sweden,Vanern,Vänern,3,9,Production,2009,113427.7349, ,
436,11.22,57.78,Sweden,Vastvind,Västvind,,1000,Planned,,19395.20211, ,
437,10.5,58.64,Sweden,Vidar,Vidar,,1400,Planned,,31072.16277, ,
438,16.019,56.167,Sweden,Yttre Stengrund 1,Yttre Stengrund 1,1,2,Dismantled,2001,3246.738742,2015,
439,16.019,56.167,Sweden,Yttre Stengrund 2-3-4,Yttre Stengrund 2-3-4,3,6,Dismantled,2001,3246.738742,2015,
440,16.019,56.167,Sweden,Yttre Stengrund 5,Yttre Stengrund 5,1,2,Dismantled,2001,3246.738742,2015,
441,-3.24,60.15,United Kingdom,Aspen,Aspen,,1500,Planned,,62514.20181, ,
442,-0.43,58.23,United Kingdom,Avalon,Avalon,,1500,Planned,,107727.6059, ,
443,0.49,57.97,United Kingdom,Beech North,Beech North,,1500,Planned,,143381.4843, ,
444,1.4,56.67,United Kingdom,Beech South,Beech South,,1500,Planned,,211714.8314, ,
445,-1.37,55.17,United Kingdom,Blyth Offshore,Blyth Offshore,5,41.5,Production,2017,8416.184226, ,
446,-1.35,55.19,United Kingdom,Blyth Offshore - 3A-4,Blyth Offshore - 3A-4,10,58.4,Approved,,9522.396471, ,
447,0.51,57.58,United Kingdom,Cenos,Cenos,,1400,Planned,,136577.1972, ,
448,1.96,57.11,United Kingdom,Central North Sea Electrification,Central North Sea Electrification,,250,Planned,,228547.9255, ,
449,1.87,57.2,United Kingdom,Culzean Floating Wind Pilot Project,Culzean Floating Wind Pilot Project,,3,Planned,,221266.3143, ,
450,-2.09,59.56,United Kingdom,Dolphyn (commercial),Dolphyn (commercial),,300,Planned,,24726.4026, ,
451,-2.09,59.54,United Kingdom,Dolphyn (full scale),Dolphyn (full scale),,2000,Planned,,23149.11574, ,
452,-1.88,56.97,United Kingdom,Dolphyn (precommercial),Dolphyn (precommercial),,10,Planned,,16774.37424, ,
453,-4.77,53.19,United Kingdom,Draig Y Mor,Draig Y Môr,,100,Planned,,11892.96284, ,
454,2.5,52.7,United Kingdom,East Anglia Two,East Anglia Two,75,900,Approved,,51624.27678, ,
455,-3.02,56.17,United Kingdom,Fife Energy Park,Fife Energy Park,1,7,Production,2014,380.3292051, ,
456,-3,56.16,United Kingdom,Forthwind Offshore Wind Demonstration Project - 1,Forthwind Offshore Wind Demonstration Project - 1,2,12,Approved,,1994.279213, ,
457,-3.02,56.14,United Kingdom,Forthwind Offshore Wind Demonstration Project - 2,Forthwind Offshore Wind Demonstration Project - 2,7,53,Planned,,3147.548098, ,
458,2.04,51.88,United Kingdom,Galloper,Galloper,56,353,Production,2018,39103.96476, ,
459,2.04,51.88,United Kingdom,Galloper Extension,Galloper Extension,,353,Planned,,39103.96476, ,
460,1.17,51.737,United Kingdom,Gunfleet Sands 1,Gunfleet Sands 1,30,108,Production,2009,5013.086205, ,
461,1.17,51.737,United Kingdom,Gunfleet Sands 2,Gunfleet Sands 2,18,64.8,Production,2009,5013.086205, ,
462,-1.24,57.88,United Kingdom,Harbour Energy North (INTOG),Harbour Energy North (INTOG),,15,Planned,,45857.65865, ,
463,-1.58,58.23,United Kingdom,Harbour Energy South (INTOG),Harbour Energy South (INTOG),,99.45,Planned,,64500.74174, ,
464,-1.3,57.5,United Kingdom,Hywind Scotland Pilot Park,Hywind Scotland Pilot Park,5,30,Production,2017,27996.19011, ,
465,-5.45,51.34,United Kingdom,Llyr 1,Llyr 1,,100,Planned,,41039.12644, ,
466,-5.27,51.34,United Kingdom,Llyr 2,Llyr 2,,100,Planned,,34555.94393, ,
467,-5.8,51.11,United Kingdom,Llywelyn,Llywelyn,,300,Planned,,74172.56346, ,
468,0.412,53.157,United Kingdom,Lynn and Inner Dowsing,Lynn and Inner Dowsing,27,97.2,Production,2008,4129.820289, ,
469,0.412,53.157,United Kingdom,Lynn and Inner Dowsing,Lynn and Inner Dowsing,27,97.2,Production,2008,4129.820289, ,
470,1.53,58.15,United Kingdom,Neos,Neos,,25,Planned,,208004.4262, ,
471,-6.52,55.58,United Kingdom,Nomadic Offshore Wind,Nomadic Offshore Wind,,400,Planned,,10269.30577, ,
472,2.67,52.87,United Kingdom,Norfolk Vanguard,Norfolk Vanguard,,2100,Approved,,67436.61348, ,
473,-5.66,55.04,United Kingdom,North Channel Wind 1,North Channel Wind 1,,300,Planned,,10570.33304, ,
474,-5.35,54.76,United Kingdom,North Channel Wind 2,North Channel Wind 2,,100,Planned,,12367.91921, ,
475,-5.53,54.27,United Kingdom,Olympic Wind (GB),Olympic Wind (GB),,1300,Planned,,2638.989498, ,
476,-1.06,57.58,United Kingdom,Salamander,Salamander,,200,Planned,,43137.60052, ,
477,-1.58,58.23,United Kingdom,Scaraben,Scaraben,,99.45,Planned,,64500.74174, ,
478,-1.86,57.05,United Kingdom,SENSE Wind Pelastar Full-Scale Prototype,SENSE Wind Pelastar Full-Scale Prototype,,15,Planned,,13953.97071, ,
479,-2.03,57.17,United Kingdom,SENSEWind Demonstrator,SENSEWind Demonstrator,,2,Planned,,2899.168242, ,
480,-6.92,55.57,United Kingdom,Shearwater One,Shearwater One,,3000,Planned,,24266.71724, ,
481,-1.71,58.29,United Kingdom,Sinclair,Sinclair,,99.45,Planned,,68323.64536, ,
482,-0.679,58.41,United Kingdom,Spiorad na Mara,Spiorad na Mara,,840,Planned,,110292.1382, ,
483,-4.85,51.62,United Kingdom,Trivane Demonstrator,Trivane Demonstrator,,1,Planned,,2287.98316, ,
484,-4.907,53.81,United Kingdom,Walney Phase 1,Walney Phase 1,51,183.6,Production,2011,26837.11095, ,
485,-5.02,50.91,United Kingdom,Whitecross,Whitecross,,100,Planned,,31697.64223, ,
486,6.37,54.72,Germany,N-11.1,N-11.1,,2000,Planned,,113943.1283, ,
487,6.16,54.77,Germany,N-12.1,N-12.1,,2000,Planned,,128428.8326, ,
488,6.12,54.87,Germany,N-12.2,N-12.2,,2000,Planned,,136412.1137, ,
489,13.78,54.85,Germany,O-2.2,O-2.2,,1000,Planned,,29135.51122, ,
490,2.8,51.67,Belgium,Belwind I,Belwind I,55,165,Production,2010,43617.79323, ,
491,8.221,56.661,Denmark,Ronland,Rønland,4,8,Production,2003,476.3378314, ,
492,8.221,56.661,Denmark,Ronland,Rønland,4,9.2,Production,2003,476.3378314, ,
493,11.13,54.97,Denmark,Vindeby-Lolland,Vindeby-Lolland,11,4.95,Dismantled,1991,1676.312857,2017,
494,20.82,58.15,Estonia,Aker Offshore,Aker Offshore,,1000,Planned,,58552.75391, ,
495,21.25,58.13,Estonia,European Energy Estonia OÜ,European Energy Estonia OÜ,,1000,Planned,,36846.35369, ,
496,21.67,58.14,Estonia,Saare,Saare,100,600,Planned,,17436.67701, ,
497,22.9,57.95,Estonia,Saare Liivi 1,Saare Liivi 1,,1200,Planned,,23043.67636, ,
498,23.02,57.96,Estonia,Saare Liivi 2,Saare Liivi 2,,1200,Planned,,19551.2175, ,
499,23.15,57.98,Estonia,Saare Liivi 3,Saare Liivi 3,,1200,Planned,,18002.21338, ,
500,23.39,58.01,Estonia,Saare Liivi 4,Saare Liivi 4,,1200,Planned,,22587.6116, ,
501,21.24,58.19,Estonia,Saaremaa Roheenergia,Saaremaa Roheenergia,,0,Planned,,34021.57948, ,
502,21.74,58.06,Estonia,Sorve,Sõrve,,1200,Planned,,17087.59829, ,
503,21.73,57.94,Estonia,Sorve 2,Sõrve 2,,1200,Planned,,15059.82755, ,
504,21.37,58.18,Estonia,Sunly SW11,Sunly SW11,,108,Planned,,27920.97541, ,
505,21.41,58.23,Estonia,Sunly SW12,Sunly SW12,,72,Planned,,23116.20209, ,
506,21.41,58.23,Estonia,Sunly SW13,Sunly SW13,,72,Planned,,23116.20209, ,
507,21.87,58.14,Estonia,Sunly SW5,Sunly SW5,,84,Planned,,11157.10637, ,
508,21.6,58.24,Estonia,Sunly SW6,Sunly SW6,,492,Planned,,13029.02031, ,
509,21.43,58.28,Estonia,Sunly SW7,Sunly SW7,,252,Planned,,20115.39812, ,
510,21.42,58.18,Estonia,Sunly SW8,Sunly SW8,,120,Planned,,25473.22234, ,
511,21.26,58.19,Estonia,Sunly SW9,Sunly SW9,,120,Planned,,32967.48894, ,
512,20.77,62.79,Finland,Korsnas - Forststyrelsen,Korsnäs - Forststyrelsen,,0,Planned,,15298.49182, ,
513,20.69,61.8,Finland,Navakka,Navakka,,1500,Planned,,32683.58458, ,
514,24.61,65.28,Finland,Pooki,Pooki,,2000,Planned,,11969.34737, ,
515,20.1,60.71,Finland,Stormskar,Stormskar,,1725,Planned,,19827.31079, ,
516,20.8,62.53,Finland,Tyrsky,Tyrsky,,1400,Planned,,13064.90044, ,
517,23.89,64.61,Finland,Ulkonahkiainen,Ulkonahkiainen,70,210,Planned,,17882.33654, ,
518,20.15,60.59,Finland,Vaderskar,Vaderskar,,375,Planned,,6360.625103, ,
519,6.496,53.967,Germany,Borkum Riffgrund II,Borkum Riffgrund II,20,166.6,Production,2018,41846.56335, ,
520,6.496,53.967,Germany,Borkum Riffgrund II,Borkum Riffgrund II,36,298.8,Production,2018,41846.56335, ,
521,7.11,54.037,Germany,Gode Wind III,Gode Wind III,,111,Construction,,35336.82485, ,
522,7.11,54.037,Germany,Gode Wind III,Gode Wind III,,131.75,Construction,,35336.82485, ,
523,7.7,54.49,Germany,Kaskasi,Kaskasi,38,342,Production,2022,35425.74303, ,
524,7.707,54.402,Germany,Meerwind Ost,Meerwind Ost,40,151.2,Production,2015,26124.92927, ,
525,7.707,54.402,Germany,Meerwind Süd,Meerwind Süd,40,151.2,Production,2015,26124.92927, ,
526,6.22,54.29,Germany,Nordlicht I,Nordlicht I,,930,Planned,,81616.68855, ,
527,14.03,54.89,Germany,Windanker,Windanker,,300,Planned,,42328.25508, ,
528,-7.46,51.81,Ireland,Celtic One,Celtic One,,800,Planned,,21928.75938, ,
529,-7.28,51.97,Ireland,Helvick Head,Helvick Head,,800,Planned,,18322.47782, ,
530,-6.09,52.54,Ireland,Loch Garman,Loch Garman,,750,Planned,,7505.284528, ,
531,-5.91,53.27,Ireland,Sea Stacks,Sea Stacks,,800,Planned,,11416.60365, ,
532,-5.89,53.76,Ireland,Setanta,Setanta,,1000,Planned,,19567.17986, ,
533,-6.99,51.98,Ireland,SSE Renewables Celtic Sea,SSE Renewables Celtic Sea,,800,Planned,,16514.85217, ,
534,20.47,55.94,Lithuania,Lithuanian Tender 1,Lithuanian Tender 1,,700,Planned,,36262.42833, ,
535,20.27,55.87,Lithuania,Lithuanian Tender 2,Lithuanian Tender 2,,700,Planned,,48868.5823, ,
536,3,51.71,Netherlands,Borssele Site V,Borssele Site V,,19,Production,2020,35684.96769, ,
537,4.165,52.403,Netherlands,Eneco Luchterduinen,Eneco Luchterduinen,43,129,Production,2015,23795.13894, ,
538,5.963,54.036,Netherlands,Gemini,Gemini,150,600,Production,2016,60905.85922, ,
539,4.27,52.67,Netherlands,Hollandse Kust Noord Holland I - II,Hollandse Kust Noord Holland I - II,69,759,Production,2023,24155.10501, ,
540,4.07,52.33,Netherlands,Hollandse Kust Zuid Holland I - II,Hollandse Kust Zuid Holland I - II,70,770,Construction,,25894.52504, ,
541,4.072,52.33,Netherlands,Hollandse Kust Zuid Holland III - IV,Hollandse Kust Zuid Holland III - IV,70,770,Construction,,25777.04183, ,
542,16.19,54.95,Poland,Baltex 2,Baltex 2,,560,Planned,,49142.35112, ,
543,17.65,55.05,Poland,Baltic Power,Baltic Power,,1200,Planned,,28426.90698, ,
544,17.53,55.56,Poland,Baltica 1,Baltica 1,,900,Planned,,68610.91383, ,
545,17.1,55.07,Poland,Baltica 2,Baltica 2,,1498,Planned,,38842.06607, ,
546,17.45,55.06,Poland,Baltica 3,Baltica 3,,1045.5,Planned,,33058.53381, ,
547,16.88,55.08,Poland,Baltyk II,Baltyk II,,720,Planned,,38794.62712, ,
548,17.36,54.99,Poland,Baltyk III,Baltyk III,,720,Planned,,26496.00776, ,
549,18.08,55.06,Poland,B-Wind,B-Wind,,200,Planned,,25173.27464, ,
550,17.95,55.08,Poland,C-Wind,C-Wind,,200,Planned,,27729.06227, ,
551,16.64,55.09,Poland,FEW Baltic II,FEW Baltic II,,350,Planned,,30662.33922, ,
552,-15.32,27.78,Spain,Cardon,Cardon,,50,Planned,,11214.22594, ,
553,3.46,42.13,Spain,Catwind,Catwind,,1200,Planned,,20256.4717, ,
554,-7.33,43.98,Spain,Celta I,Celta I,,495,Planned,,30242.69439, ,
555,-2.88,43.47,Spain,DemoSATH,DemoSATH,1,2,Production,2023,3765.704496, ,
556,-15.32,27.82,Spain,DUNAS,DUNAS,,50,Planned,,8376.031338, ,
557,-15.31,27.81,Spain,FOWCA,FOWCA,,225,Planned,,9832.741347, ,
558,3.42,42.15,Spain,Gavina,Gavina,,500,Planned,,16263.47388, ,
559,-15.35,27.79,Spain,Gran Canaria Este,Gran Canaria Este,,144,Planned,,8348.946905, ,
560,-9.28,41.91,Spain,Juan Sebastian Elcano,Juan Sebastian Elcano,,522,Planned,,32624.63076, ,
561,3.47,42.17,Spain,L'Emporda,L’Emporda,,510,Planned,,18426.71379, ,
562,-3.18,36.53,Spain,La Pinta,La Pinta,,990,Planned,,23628.20125, ,
563,-13.5,28.94,Spain,Lanzarote Este,Lanzarote Este,,50,Planned,,4146.672463, ,
564,-15.32,27.8,Spain,Mojo,Mojo,,50,Planned,,9653.714084, ,
565,-2.89,43.46,Spain,MPS demo - BiMEP,MPS demo - BiMEP,,2.5,Planned,,2730.413479, ,
566,-9.28,41.92,Spain,Volanteiro,Volanteiro,,510,Planned,,32564.32763, ,
567,18.62,61.12,Sweden,Fyrskeppet,Fyrskeppet,,2000,Planned,,63187.18728, ,
568,17.89,60.87,Sweden,Gavle East,Gävle East,,5500,Planned,,23711.54885, ,
569,17.72,61.52,Sweden,Gretas Klackar,Gretas Klackar,,0,Planned,,13678.31724, ,
570,17.72,61.52,Sweden,Gretas Klackar II,Gretas Klackar II,,0,Planned,,13678.31724, ,
571,13.1,55.07,Sweden,Kriegers Flak II,Kriegers Flak II,128,640,Approved,,32450.02493, ,
572,12.763,55.509,Sweden,Lillgrund,Lillgrund,15,34.5,Production,2007,7813.543454, ,
573,12.763,55.509,Sweden,Lillgrund,Lillgrund,21,48.3,Production,2007,7813.543454, ,
574,12.763,55.509,Sweden,Lillgrund,Lillgrund,12,27.6,Production,2007,7813.543454, ,
575,11.12,57.8,Sweden,Poseidon Syd,Poseidon Syd,,200,Planned,,23074.41712, ,
576,17.5,61.12,Sweden,Storgrundet,Storgrundet,,1020,Approved,,9687.378715, ,
577,18.52,61.38,Sweden,Sylen,Sylen,261,5000,Planned,,59167.41648, ,
578,17.5,61.08,Sweden,Utposten II,Utposten II,,0,Planned,,10856.71597, ,
579,-2.692,58.304,United Kingdom,Beatrice Demonstration,Beatrice Demonstration,2,10,Dismantled,2007,25483.24526,2016,
580,0.7,56.97,United Kingdom,Cedar,Cedar,,1008,Planned,,159286.2044, ,
581,2.94,55.06,United Kingdom,Dogger Bank D,Dogger Bank D,,1320,Planned,,221542.2435, ,
582,-1.99,57.23,United Kingdom,EOWDC,EOWDC,9,75.6,Production,2018,3440.148274, ,
583,-1.99,57.23,United Kingdom,EOWDC,EOWDC,2,17.6,Production,2018,3440.148274, ,
584,-5.6,51.38,United Kingdom,Erebus (Commercial),Erebus (Commercial),,600,Planned,,41129.02832, ,
585,1.982,51.773,United Kingdom,Greater Gabbard 1,Greater Gabbard 1,80,288,Production,2012,44503.99322, ,
586,1.982,51.773,United Kingdom,Greater Gabbard 2,Greater Gabbard 2,60,216,Production,2012,44503.99322, ,
587,1.982,51.773,United Kingdom,Greater Gabbard Extension,Greater Gabbard Extension,,504,Planned,,44503.99322, ,
588,-0.65,57.9,United Kingdom,Green Volt,Green Volt,,480,Planned,,76972.36982, ,
589,1.19,51.7,United Kingdom,Gunfleet Sands 3 Demonstration,Gunfleet Sands 3 Demonstration,2,12,Production,2013,9315.445232, ,
590,-5.74,51.19,United Kingdom,Gwynt Glas,Gwynt Glas,,1000,Planned,,64339.14558, ,
591,1.79,53.9,United Kingdom,Hornsea Project One - Heron Wind,Hornsea Project One - Heron Wind,87,609,Production,2019,112580.2234, ,
592,1.56,53.92,United Kingdom,Hornsea Project Two - Breesea and Optimus Wind,Hornsea Project Two - Breesea and Optimus Wind,165,1386,Production,2022,99070.46678, ,
593,1.079,51.45,United Kingdom,Kentish Flats 2,Kentish Flats 2,15,49.5,Production,2015,8722.301683, ,
594,-0.56,57.41,United Kingdom,Muir Mhor,Muir Mhor,,798,Planned,,73096.1972, ,
595,-0.56,58.12,United Kingdom,Orcadian Microgrid,Orcadian Microgrid,,105,Planned,,94125.83688, ,
596,-5.13,51.47,United Kingdom,Pembrokeshire Demonstration Zone,Pembrokeshire Demonstration Zone,,180,Planned,,17523.23115, ,
597,-3.85,58.65,United Kingdom,Pentland,Pentland,,100,Approved,,9009.095726, ,
598,-5.49,50.94,United Kingdom,Petroc,Petroc,,300,Planned,,53405.14859, ,
599,0.841,53.276,United Kingdom,Race Bank Extension,Race Bank Extension,,573,Planned,,32695.29597, ,
600,-3.71,54.756,United Kingdom,Robin Rigg,Robin Rigg,30,90,Production,2010,10475.48206, ,
601,-3.71,54.756,United Kingdom,Robin Rigg,Robin Rigg,28,84,Production,2010,10475.48206, ,
602,-1.821,56.611,United Kingdom,Seagreen,Seagreen,114,1075,Production,2023,36888.66336, ,
603,-3.737,54.087,United Kingdom,Walney Extension,Walney Extension,47,329,Production,2018,29167.66707, ,
604,-3.737,54.087,United Kingdom,Walney Extension,Walney Extension,40,330,Production,2018,29167.66707, ,
605,2.94,51.54,Belgium,Thorntonbank Part 1,Thorntonbank Part 1,6,30.45,Production,2008,26229.41122, ,
606,2.97,51.56,Belgium,Thorntonbank Part 2,Thorntonbank Part 2,30,184.5,Production,2013,26856.87531, ,
607,2.92,51.54,Belgium,Thorntonbank Part 3,Thorntonbank Part 3,18,110.7,Production,2013,27111.35891, ,
608,24.09,64.58,Finland,Raahe Maanahkiaisen,Raahe Maanahkiaisen,70,350,Planned,,8449.569077, ,
609,20.77,56.82,Latvia,Baltic Wind Park Phase 1,Baltic Wind Park Phase 1,,200,Planned,,17203.50386, ,
610,20.77,56.82,Latvia,Baltic Wind Park Phase 2,Baltic Wind Park Phase 2,,300,Planned,,17203.50386, ,
611,17.26,55.52,Poland,Baltyk I Phase 1,Baltyk I Phase 1,190,1140,Planned,,51081.33172, ,
612,17.38,55.51,Poland,Baltyk I Phase 2,Baltyk I Phase 2,70,420,Planned,,57895.82734, ,
613,3.44,42.19,Spain,Tramuntana Phase 1,Tramuntana Phase 1,,450,Planned,,15165.27781, ,
614,-1.86,57,United Kingdom,Kincardine Offshore Windfarm Part 1,Kincardine Offshore Windfarm Part 1,1,2,Production,2021,16069.68369, ,
615,-1.849,57.005,United Kingdom,Kincardine Offshore Windfarm Part 2,Kincardine Offshore Windfarm Part 2,5,47.5,Production,2021,16418.74297, ,
616,0.837,53.479,United Kingdom,Triton Knoll Wind Farm Part 1,Triton Knoll Wind Farm Part 1,30,285,Production,2021,40821.09308, ,
617,0.837,53.479,United Kingdom,Triton Knoll Wind Farm Part 2,Triton Knoll Wind Farm Part 2,30,285,Production,2021,40821.09308, ,
618,0.837,53.479,United Kingdom,Triton Knoll Wind Farm Part 3,Triton Knoll Wind Farm Part 3,30,285,Production,2022,40821.09308, ,
619,-3.605,54.081,United Kingdom,Walney Phase 2,Walney Phase 2,51,183.6,Production,2012,22145.10364, ,
